[
    {"name":"Acadia Community Garden","address":"332 94 Avenue SE","quadrant":"SE","postalCode":"T2J0E8","coordinates":{"lat":"50.9689072166814","lng":"-114.063151357453"},"plotSize":"","established":"2013","numberOfPlots":"42","fee":"$20-$40","website":"https://growingacadia.ca/about/"},
    {"name":"Banff Trail Community Garden","address":"2115 20 Ave NW","quadrant":"NW","postalCode":"T2M1J1","coordinates":{"lat":"51.0710514495872","lng":"-114.107020854459"},"plotSize":"21","established":"2010","numberOfPlots":"30","fee":"25","website":"http://www.banfftrailcommunity.ca/programs/garden/"},
    {"name":"Bankview Community Association Garden","address":"1626 23 Ave SW","quadrant":"SW","postalCode":"T2T0T9","coordinates":{"lat":"51.0338593125818","lng":"-114.096936386184"},"plotSize":"44","established":"2011","numberOfPlots":"30","fee":"40","website":""},
    {"name":"Bonavista Downs Community Garden","address":"1418 Lake Ontario Road SE","quadrant":"SE","postalCode":"T2J5N7","coordinates":{"lat":"50.941934025838","lng":"-114.031681308062"},"plotSize":"32","established":"2016","numberOfPlots":"13","fee":"40","website":"https://www.bonavistadowns.com/community-garden.html"},
    {"name":"Bow Bottom Community Garden","address":"77 Deerpoint Road SE","quadrant":"SE","postalCode":"T2J6W5","coordinates":{"lat":"50.9263093325445","lng":"-114.02785775039"},"plotSize":"100","established":"2010","numberOfPlots":"20","fee":"25","website":"http://dpuc.ca/bow-bottom-community-garden/"},
    {"name":"Bowness Railway Community Garden","address":"6708 Bowness Rd NW","quadrant":"NW","postalCode":"T3B0G3","coordinates":{"lat":"51.0888052540117","lng":"-114.18598969794"},"plotSize":"64","established":"2008","numberOfPlots":"18","fee":"10","website":""},
    {"name":"Brentwood Community Garden","address":"5107 33 Street NW","quadrant":"NW","postalCode":"T2L1V3","coordinates":{"lat":"51.0991199911257","lng":"-114.136438367584"},"plotSize":"16","established":"2010","numberOfPlots":"34","fee":"20","website":"http://brentwoodgardening.blogspot.com/"},
    {"name":"Bridgeland-Riverside Rooftop Community Garden","address":"917 Center Avenue NE","quadrant":"NE","postalCode":"T2E0C6","coordinates":{"lat":"51.0523486091252","lng":"-114.040230831331"},"plotSize":"","established":"2014","numberOfPlots":"15","fee":"$25-$40","website":"https://www.brcacalgary.org/garden_club"},
    {"name":"Bridgeland-Riverside Vacant Lots Garden","address":"46 7 Street NE","quadrant":"NE","postalCode":"T2E8W2","coordinates":{"lat":"51.0522908805813","lng":"-114.042297470505"},"plotSize":"","established":"1924","numberOfPlots":"","fee":"","website":"https://www.cip-icu.ca/Files/Awards/Planning-Excellence/2010-HM-Neighbourhood-Planning.aspx"},
    {"name":"Capitol Hill Community Garden","address":"1531 21 Avenue NW","quadrant":"NW","postalCode":"T2M1L9","coordinates":{"lat":"51.0714084140921","lng":"-114.096183949969"},"plotSize":"","established":"2014","numberOfPlots":"27","fee":"","website":"https://www.capitolhillcommunity.ca/information-community-garden"},
    {"name":"Cedarbrae Community Garden","address":"11024 Oakfield Dr SW","quadrant":"SW","postalCode":"T2W5G6","coordinates":{"lat":"50.9551856153376","lng":"-114.127990547982"},"plotSize":"45","established":"","numberOfPlots":"","fee":"25","website":""},
    {"name":"CKE Community Garden","address":"1015 73 Ave SW","quadrant":"SW","postalCode":"T2V0R9","coordinates":{"lat":"50.9874642038612","lng":"-114.084351108571"},"plotSize":"16","established":"","numberOfPlots":"","fee":"35","website":"https://ckecommunity.com/programs-activities/"},
    {"name":"Cliff Bungalow Community Garden","address":"2201 Ciff Street SW","quadrant":"SW","postalCode":"T2S2G4","coordinates":{"lat":"51.0334825111856","lng":"-114.075735274183"},"plotSize":"","established":"2014","numberOfPlots":"30","fee":"","website":"https://www.cliffbungalowmission.com/cliff-bungalow-community-garden"},
    {"name":"Alternative High Garden","address":"5003 20 Street SW","quadrant":"SW","postalCode":"T2T5A5","coordinates":{"lat":"51.0089748523289","lng":"-114.109757325107"},"plotSize":"16","established":"2010","numberOfPlots":"44","fee":"","website":"https://www.communitycrop.org/alternative.high.garden"},
    {"name":"Currie Booster Community Garden","address":"3410 16 Street SW","quadrant":"SW","postalCode":"T2T2B6","coordinates":{"lat":"51.0234142281418","lng":"-114.100227880817"},"plotSize":"32","established":"2010","numberOfPlots":"36","fee":"","website":"https://www.communitycrop.org/south.garden"},
    {"name":"South Calgary Garden","address":"3130 16 Street SW","quadrant":"SW","postalCode":"T2T4G7","coordinates":{"lat":"51.0257267275567","lng":"-114.098542293221"},"plotSize":"32","established":"2007","numberOfPlots":"46","fee":"","website":"https://www.communitycrop.org/south.garden"},
    {"name":"Connaught Community Garden","address":"1121 14 Avenue SW","quadrant":"SW","postalCode":"T2R0P3","coordinates":{"lat":"51.0399929939853","lng":"-114.087072026753"},"plotSize":"16","established":"","numberOfPlots":"","fee":"","website":"https://connaughtcommunitygarden.weebly.com/"},
    {"name":"Crescent Heights Community Garden","address":"1101 2nd ST NW","quadrant":"NW","postalCode":"T2M2V7","coordinates":{"lat":"51.0613391639355","lng":"-114.067946861967"},"plotSize":"","established":"2019","numberOfPlots":"21","fee":"","website":"http://crescentheightsyyc.ca/community-garden-plot/"},
    {"name":"Deer Ridge Community Garden","address":"155 Deermont Way SE","quadrant":"SE","postalCode":"T2J6S7","coordinates":{"lat":"50.929440800908","lng":"-114.018989450278"},"plotSize":"32","established":"2013","numberOfPlots":"29","fee":"25","website":"https://deerridgeca.com/community-gardens/"},
    {"name":"DouglasQuarry Community Garden","address":"Douglasdale Park","quadrant":"SE","postalCode":"T2Z2K8","coordinates":{"lat":"50.9413575969309","lng":"-114.002225215889"},"plotSize":"32","established":"2009","numberOfPlots":"31","fee":"30","website":"https://dqca.ca/community-garden/"},
    {"name":"East Village Community Garden","address":"630 7 Ave SE","quadrant":"SE","postalCode":"T2G0J7","coordinates":{"lat":"51.0464450503231","lng":"-114.048258445791"},"plotSize":"","established":"2016","numberOfPlots":"88","fee":"33","website":"https://yycevna.org/Garden"},
    {"name":"FCJ Centre Community Garden","address":"219 19 Avenue SW","quadrant":"SW","postalCode":"T2S0C8","coordinates":{"lat":"51.0360804255607","lng":"-114.066246938398"},"plotSize":"32","established":"15","numberOfPlots":"12","fee":"","website":"https://www.fcjcentre.ca/community-garden"},
    {"name":"Garden of Eat'n","address":"232134 Range Rd 284","quadrant":"SE","postalCode":"T1X0K7","coordinates":{"lat":"50.9607794548067","lng":"-113.85102303105"},"plotSize":"32","established":"","numberOfPlots":"","fee":"20","website":""},
    {"name":"Glenbrook Green Thumbs","address":"3020 51 Street SW","quadrant":"SW","postalCode":"T3E6S7","coordinates":{"lat":"51.0275357496994","lng":"-114.16011547888"},"plotSize":"","established":"","numberOfPlots":"","fee":"","website":"https://www.emmanuelcrc.org/projects"},
    {"name":"Hawkwood Community Garden","address":"51.128305211, -114.17877307","quadrant":"NW","postalCode":"","coordinates":{"lat":"51.1283052109887","lng":"-114.178773065383"},"plotSize":"16","established":"2017","numberOfPlots":"30","fee":"15","website":"http://hawkwoodca.com/community-programs/community-garden/"},
    {"name":"Hillhurst Sunnyside Community Garden","address":"933 4 Street NW","quadrant":"NW","postalCode":"T2N1P4","coordinates":{"lat":"51.0605461531913","lng":"-114.071656763537"},"plotSize":"96","established":"1989","numberOfPlots":"33","fee":"50","website":"https://www.hsca.ca/hillhurst-sunnyside-community-garden"},
    {"name":"Inglewood Community Garden","address":"2297 17 St SE","quadrant":"SE","postalCode":"T2G3V6","coordinates":{"lat":"51.0340582505548","lng":"-114.019234404809"},"plotSize":"Various","established":"2003","numberOfPlots":"119","fee":"60","website":"https://inglewoodcommunitygarden.ca/"},
    {"name":"Kensington First Community Garden","address":"1320 5 Avenue NW","quadrant":"NW","postalCode":"T2N0S2","coordinates":{"lat":"51.0576670731386","lng":"-114.092222643498"},"plotSize":"","established":"2011","numberOfPlots":"22","fee":"","website":"https://www.hsca.ca/kensington-community-first"},
    {"name":"Killarney-Glengarry Community Garden","address":"2828 28 Street SW","quadrant":"SW","postalCode":"T3E2J3","coordinates":{"lat":"51.02884064704","lng":"-114.127060786829"},"plotSize":"48","established":"1996","numberOfPlots":"18","fee":"40","website":"https://www.killarneyglengarry.com/programs"},
    {"name":"Legacy Community Garden","address":"404 Legacy View SE","quadrant":"SE","postalCode":"T0L0X0","coordinates":{"lat":"50.8553775415711","lng":"-114.011157232859"},"plotSize":"24","established":"","numberOfPlots":"70","fee":"35","website":"https://legacyresidents.ca/garden/"},
    {"name":"McClure Fellowship of Gardeners","address":"5510 26 Avenue NE","quadrant":"NE","postalCode":"T1Y6S1","coordinates":{"lat":"51.0776468504674","lng":"-113.954507923056"},"plotSize":"40","established":"1998","numberOfPlots":"50","fee":"30","website":""},
    {"name":"Rosscarrock Community Garden","address":"4411 10 Avenue SW","quadrant":"SW","postalCode":"TC30L9","coordinates":{"lat":"51.0425705861535","lng":"-114.151745540981"},"plotSize":"","established":"","numberOfPlots":"24","fee":"25","website":"https://www.rosscarrock.org/garden/"},
    {"name":"Mid-Sun Community Garden","address":"50 Midpark Rise SE","quadrant":"SE","postalCode":"T2X1L7","coordinates":{"lat":"50.9155125987131","lng":"-114.056166761693"},"plotSize":"32","established":"2009","numberOfPlots":"62","fee":"20","website":"https://www.midsun.org/mid-sun-community-garden/"},
    {"name":"Millrise Community Garden","address":"14826 Millrise Hill SW","quadrant":"SW","postalCode":"T2Y2B4","coordinates":{"lat":"50.918541716718","lng":"-114.086684447464"},"plotSize":"18","established":"2012","numberOfPlots":"12","fee":"35","website":"https://www.millrise.org/index.php/community-garden-guests"},
    {"name":"Mission Communityy Garden","address":"215 24 Ave SW","quadrant":"SW","postalCode":"T2S1T1","coordinates":{"lat":"51.0312262702691","lng":"-114.067057250335"},"plotSize":"","established":"1995","numberOfPlots":"45","fee":"","website":"https://www.cliffbungalowmission.com/mission-community-garden"},
    {"name":"Montgomery Community Garden","address":"48 Street & Montalban Avenue NW","quadrant":"NW","postalCode":"T3B1G5","coordinates":{"lat":"51.080047321111","lng":"-114.160076187063"},"plotSize":"","established":"","numberOfPlots":"Communal","fee":"20","website":"https://www.mcapeople.com/get-involved"},
    {"name":"Mount Pleasant Community Garden","address":"523 27 Ave NW","quadrant":"NW","postalCode":"T2M2H9","coordinates":{"lat":"51.0764844986542","lng":"-114.07280300153"},"plotSize":"","established":"","numberOfPlots":"31","fee":"","website":"https://mpca.ca/greeninitiatives/#cg"},
    {"name":"Mount Royal University Community Garden","address":"10 Mt Royal Ct SW","quadrant":"SW","postalCode":"T3E6X4","coordinates":{"lat":"51.0135127578383","lng":"-114.128005503532"},"plotSize":"","established":"2010","numberOfPlots":"Communal","fee":"0","website":"https://samru.ca/community-garden/"},
    {"name":"Coventry Hills Community Garden","address":"110 Covepark Square NE","quadrant":"NE","postalCode":"T3K5W9","coordinates":{"lat":"51.1657783470853","lng":"-114.059652076392"},"plotSize":"48","established":"","numberOfPlots":"","fee":"30","website":"https://nhca.ca/gardens/"},
    {"name":"Harvest Gardens","address":"520 Harvest Lake Drive NE","quadrant":"NE","postalCode":"T3K4C3","coordinates":{"lat":"51.1473009926239","lng":"-114.054903815053"},"plotSize":"48","established":"","numberOfPlots":"","fee":"30","website":"https://nhca.ca/gardens/"},
    {"name":"Parkdale Community Garden","address":"3512 5 Avenue NW","quadrant":"NW","postalCode":"T2N0V7","coordinates":{"lat":"51.0607302325799","lng":"-114.136067838848"},"plotSize":"","established":"","numberOfPlots":"44","fee":"55","website":"http://parkdalecommunity.com/garden/"},
    {"name":"Parkland Community Garden","address":"14660 Parkland Blvd SE","quadrant":"SE","postalCode":"T2J6L5","coordinates":{"lat":"50.9178880639564","lng":"-114.02401122721"},"plotSize":"48","established":"2009","numberOfPlots":"32","fee":"25","website":"http://www.parklandyyc.ca/community-garden/"},
    {"name":"Ramsay Community Garden","address":"2040 Ramsay Street SE","quadrant":"SE","postalCode":"T2G4H9","coordinates":{"lat":"51.0351027223602","lng":"-114.046273792991"},"plotSize":"","established":"2008","numberOfPlots":"","fee":"","website":"https://sites.google.com/ramsaycalgary.ca/ramsaycommunitygarden/home?authuser=0"},
    {"name":"Ranchlands Community Garden","address":"1313 Ranchlands Way NW","quadrant":"NW","postalCode":"T3G2A1","coordinates":{"lat":"51.1190599645816","lng":"-114.196122315562"},"plotSize":"24","established":"","numberOfPlots":"","fee":"35","website":""},
    {"name":"Renfrew Community Garden","address":"1324 Phair Ave NE","quadrant":"NE","postalCode":"T2E5E9","coordinates":{"lat":"51.0572360586942","lng":"-114.03042120153"},"plotSize":"Various","established":"2017","numberOfPlots":"27","fee":"$14-$50","website":"https://renfrewcommunitygarden.wordpress.com/"},
    {"name":"Richmond Knob Hill Community Garden","address":"2433 26 Avenue SW","quadrant":"SW","postalCode":"T2T5Y5","coordinates":{"lat":"51.0297664290072","lng":"-114.116823182487"},"plotSize":"","established":"","numberOfPlots":"","fee":"25","website":"https://www.richmondknobhill.ca/event-info/community-garden"},
    {"name":"Rocky Ridge and Royal Oak Community Garden","address":"Tara Field Park","quadrant":"NW","postalCode":"T3G5L4","coordinates":{"lat":"51.1427160838764","lng":"-114.216907899678"},"plotSize":"","established":"","numberOfPlots":"","fee":"","website":"https://rrroca.org/en/rrroca-community/rrroca-calgary-community-garden/"},
    {"name":"Rutland Park Community Garden","address":"3130 40 Avenue SW","quadrant":"SW","postalCode":"T3E4T2","coordinates":{"lat":"51.0187139416682","lng":"-114.134933121115"},"plotSize":"","established":"","numberOfPlots":"","fee":"","website":""},
    {"name":"Silver Springs Edible Garden","address":"Norwest United Silverhill","quadrant":"NW","postalCode":"","coordinates":{"lat":"51.1076278704238","lng":"-114.199688178512"},"plotSize":"","established":"2009","numberOfPlots":"","fee":"","website":"https://silverspringsgarden.wordpress.com/"},
    {"name":"Silverado Community Garden","address":"Silverado Blvd  & Silverado Drive","quadrant":"SW","postalCode":"T2X0H7","coordinates":{"lat":"50.8847596742205","lng":"-114.078960458031"},"plotSize":"24","established":"","numberOfPlots":"18","fee":"","website":"http://www.silveradoca.ca/community-garden/"},
    {"name":"Somerset Bridlewood Community Garden","address":"100 Somervale Dr SW","quadrant":"SW","postalCode":"T2Y3J5","coordinates":{"lat":"50.9013025769047","lng":"-114.071487953655"},"plotSize":"48","established":"2010","numberOfPlots":"21","fee":"25","website":"http://www.mysbca.ca/about-our-garden.html"},
    {"name":"Southwood Community Garden","address":"11 Sackville Drive SW","quadrant":"SW","postalCode":"T2W0W3","coordinates":{"lat":"50.9566051507667","lng":"-114.086666115841"},"plotSize":"32","established":"","numberOfPlots":"","fee":"20","website":"https://southwoodcommunitygardens.wordpress.com/"},
    {"name":"Springbank Hill Community Garden","address":"","quadrant":"","postalCode":"","coordinates":{"lat":"","lng":""},"plotSize":"","established":"2021","numberOfPlots":"","fee":"","website":"https://springbankhill.org/programs/community-gardens/"},
    {"name":"St. Albert the Great Community Garden","address":"10 Prestwick Drive SE","quadrant":"SE","postalCode":"T2Z4J6","coordinates":{"lat":"50.9237840972518","lng":"-113.966643261797"},"plotSize":"9","established":"2018","numberOfPlots":"42","fee":"20","website":""},
    {"name":"St. Barnabas Community Garden","address":"1407 7 Avenue NW","quadrant":"NW","postalCode":"T2N0Z3","coordinates":{"lat":"51.0587696564884","lng":"-114.092270468272"},"plotSize":"","established":"2011","numberOfPlots":"18","fee":"45","website":"https://stbarnabasgarden.org/"},
    {"name":"Sunalta Community Garden","address":"1627 10 Avenue SW","quadrant":"SW","postalCode":"T3C0J7","coordinates":{"lat":"51.0440329977968","lng":"-114.098453289988"},"plotSize":"","established":"","numberOfPlots":"20","fee":"","website":"https://www.sunalta.net/community-gardens"},
    {"name":"Tuscany Community Garden","address":"Tuscany Hill NW & Tuscany Meadows Dr NW","quadrant":"NW","postalCode":"","coordinates":{"lat":"51.1151454006189","lng":"-114.246137102198"},"plotSize":"","established":"","numberOfPlots":"","fee":"35","website":"https://www.tuscanyca.org/community-garden/"},
    {"name":"Twin Views Communal Garden","address":"2951 26 Ave SE","quadrant":"SE","postalCode":"T2B2P2","coordinates":{"lat":"51.0298603024388","lng":"-113.987651843965"},"plotSize":"","established":"2015","numberOfPlots":"25","fee":"0","website":"https://www.facebook.com/pages/Twin-Views-Communal-Garden/417652988373742"},
    {"name":"Unitarian Church Community Garden","address":"1703 1 Street NW","quadrant":"NW","postalCode":"T2M0H4","coordinates":{"lat":"51.0675938245787","lng":"-114.065519476493"},"plotSize":"","established":"2007","numberOfPlots":"16","fee":"","website":"https://calgaryunitarians.ca/justice/a-green-sanctuary/"},
    {"name":"University of Calgary Campus Community Garden","address":"51.07605121, -114.140192631","quadrant":"NW","postalCode":"T2N4V5","coordinates":{"lat":"51.0760512095985","lng":"-114.140192630801"},"plotSize":"100","established":"","numberOfPlots":"","fee":"20","website":"https://www.ucalgary.ca/sustainability/our-sustainable-campus/campus-community-garden"},
    {"name":"Valley Ridge Community Garden","address":"170 Valley Meadow Close NW","quadrant":"NW","postalCode":"T3B5M2","coordinates":{"lat":"51.0895755514425","lng":"-114.24562836541"},"plotSize":"","established":"2011","numberOfPlots":"31","fee":"35","website":"https://www.vrca.community/community-garden/"},
    {"name":"Varsity Community Garden","address":"4303 Varsity Drive NW","quadrant":"NW","postalCode":"T3A0Z7","coordinates":{"lat":"51.0918396097337","lng":"-114.149983620104"},"plotSize":"32","established":"","numberOfPlots":"36","fee":"34","website":"http://www.varsitycommunitygarden.ca/"},
    {"name":"West Hillhurst Community Garden","address":"1940 6 Avenue NW","quadrant":"NW","postalCode":"T2N0W3","coordinates":{"lat":"51.0588019369573","lng":"-114.104548226776"},"plotSize":"Various","established":"","numberOfPlots":"35","fee":"40","website":"https://www.westhillhurst.com/gardens/"},
    {"name":"West Springs Community Hub and Garden","address":"25 Weston Park SW","quadrant":"SW","postalCode":"T3E5E6","coordinates":{"lat":"51.0644100089552","lng":"-114.194204813282"},"plotSize":"32","established":"","numberOfPlots":"80","fee":"","website":"https://wscr.ca/wscr-community-hub-garden/"},
    {"name":"Wildwood Permaculture Gardens","address":"4411 Spruce Drive SW","quadrant":"SW","postalCode":"T3C3B1","coordinates":{"lat":"51.0514890412826","lng":"-114.151152973441"},"plotSize":"","established":"","numberOfPlots":"18","fee":"","website":"https://mywildwood.ca/community/community-garden/"},
    {"name":"Willow Ridge Community Garden","address":"680 Acadia Drive SE","quadrant":"SE","postalCode":"T2J0C1","coordinates":{"lat":"50.9602846634326","lng":"-114.043035007743"},"plotSize":"","established":"2005","numberOfPlots":"40","fee":"40","website":"https://mywillowridge.ca/activities/community-garden"},
    {"name":"Winston Heights - Mountview Community Garden","address":"520 27 Avenue NE","quadrant":"NE","postalCode":"T2E3Z3","coordinates":{"lat":"51.0778371792923","lng":"-114.052193018822"},"plotSize":"32","established":"2014","numberOfPlots":"58","fee":"50","website":"https://winstonheights.ca/gardens/communitygarden/"}
    ]