[
    {"Garden Name":"Acadia Community Garden","Address":"332 94 Avenue SE","Quadrant":"SE","Postal Code":"T2J0E8","Lat":"50.9689072166814","Lng":"-114.063151357453","Plot Size (ft2)":"","Vacancy":"","Established":"2013","# Plots":"42","Fee":"$20-$40","Website":"https://growingacadia.ca/about/"},
    {"Garden Name":"Banff Trail Community Garden","Address":"2115 20 Ave NW","Quadrant":"NW","Postal Code":"T2M1J1","Lat":"51.0710514495872","Lng":"-114.107020854459","Plot Size (ft2)":"21","Vacancy":"","Established":"2010","# Plots":"30","Fee":"25","Website":"http://www.banfftrailcommunity.ca/programs/garden/"},
    {"Garden Name":"Bankview Community Association Garden","Address":"1626 23 Ave SW","Quadrant":"SW","Postal Code":"T2T0T9","Lat":"51.0338593125818","Lng":"-114.096936386184","Plot Size (ft2)":"44","Vacancy":"","Established":"2011","# Plots":"30","Fee":"40","Website":""},
    {"Garden Name":"Bonavista Downs Community Garden","Address":"1418 Lake Ontario Road SE","Quadrant":"SE","Postal Code":"T2J5N7","Lat":"50.941934025838","Lng":"-114.031681308062","Plot Size (ft2)":"32","Vacancy":"","Established":"2016","# Plots":"13","Fee":"40","Website":"https://www.bonavistadowns.com/community-garden.html"},
    {"Garden Name":"Bow Bottom Community Garden","Address":"77 Deerpoint Road SE","Quadrant":"SE","Postal Code":"T2J6W5","Lat":"50.9263093325445","Lng":"-114.02785775039","Plot Size (ft2)":"100","Vacancy":"","Established":"2010","# Plots":"20","Fee":"25","Website":"http://dpuc.ca/bow-bottom-community-garden/"},
    {"Garden Name":"Bowness Railway Community Garden","Address":"6708 Bowness Rd NW","Quadrant":"NW","Postal Code":"T3B0G3","Lat":"51.0888052540117","Lng":"-114.18598969794","Plot Size (ft2)":"64","Vacancy":"","Established":"2008","# Plots":"18","Fee":"10","Website":""},
    {"Garden Name":"Brentwood Community Garden","Address":"5107 33 Street NW","Quadrant":"NW","Postal Code":"T2L1V3","Lat":"51.0991199911257","Lng":"-114.136438367584","Plot Size (ft2)":"16","Vacancy":"","Established":"2010","# Plots":"34","Fee":"20","Website":"http://brentwoodgardening.blogspot.com/"},
    {"Garden Name":"Bridgeland-Riverside Rooftop Community Garden","Address":"917 Center Avenue NE","Quadrant":"NE","Postal Code":"T2E0C6","Lat":"51.0523486091252","Lng":"-114.040230831331","Plot Size (ft2)":"","Vacancy":"","Established":"2014","# Plots":"15","Fee":"$25-$40","Website":"https://www.brcacalgary.org/garden_club"},
    {"Garden Name":"Bridgeland-Riverside Vacant Lots Garden","Address":"46 7 Street NE","Quadrant":"NE","Postal Code":"T2E8W2","Lat":"51.0522908805813","Lng":"-114.042297470505","Plot Size (ft2)":"","Vacancy":"","Established":"1924","# Plots":"","Fee":"","Website":"https://www.cip-icu.ca/Files/Awards/Planning-Excellence/2010-HM-Neighbourhood-Planning.aspx"},
    {"Garden Name":"Capitol Hill Community Garden","Address":"1531 21 Avenue NW","Quadrant":"NW","Postal Code":"T2M1L9","Lat":"51.0714084140921","Lng":"-114.096183949969","Plot Size (ft2)":"","Vacancy":"","Established":"2014","# Plots":"27","Fee":"","Website":"https://www.capitolhillcommunity.ca/information-community-garden"},
    {"Garden Name":"Cedarbrae Community Garden","Address":"11024 Oakfield Dr SW","Quadrant":"SW","Postal Code":"T2W5G6","Lat":"50.9551856153376","Lng":"-114.127990547982","Plot Size (ft2)":"45","Vacancy":"","Established":"","# Plots":"","Fee":"25","Website":""},
    {"Garden Name":"CKE Community Garden","Address":"1015 73 Ave SW","Quadrant":"SW","Postal Code":"T2V0R9","Lat":"50.9874642038612","Lng":"-114.084351108571","Plot Size (ft2)":"16","Vacancy":"","Established":"","# Plots":"","Fee":"35","Website":"https://ckecommunity.com/programs-activities/"},
    {"Garden Name":"Cliff Bungalow Community Garden","Address":"2201 Ciff Street SW","Quadrant":"SW","Postal Code":"T2S2G4","Lat":"51.0334825111856","Lng":"-114.075735274183","Plot Size (ft2)":"","Vacancy":"","Established":"2014","# Plots":"30","Fee":"","Website":"https://www.cliffbungalowmission.com/cliff-bungalow-community-garden"},
    {"Garden Name":"Alternative High Garden","Address":"5003 20 Street SW","Quadrant":"SW","Postal Code":"T2T5A5","Lat":"51.0089748523289","Lng":"-114.109757325107","Plot Size (ft2)":"16","Vacancy":"","Established":"2010","# Plots":"44","Fee":"","Website":"https://www.communitycrop.org/alternative.high.garden"},
    {"Garden Name":"Currie Booster Community Garden","Address":"3410 16 Street SW","Quadrant":"SW","Postal Code":"T2T2B6","Lat":"51.0234142281418","Lng":"-114.100227880817","Plot Size (ft2)":"32","Vacancy":"","Established":"2010","# Plots":"36","Fee":"","Website":"https://www.communitycrop.org/south.garden"},
    {"Garden Name":"South Calgary Garden","Address":"3130 16 Street SW","Quadrant":"SW","Postal Code":"T2T4G7","Lat":"51.0257267275567","Lng":"-114.098542293221","Plot Size (ft2)":"32","Vacancy":"","Established":"2007","# Plots":"46","Fee":"","Website":"https://www.communitycrop.org/south.garden"},
    {"Garden Name":"Connaught Community Garden","Address":"1121 14 Avenue SW","Quadrant":"SW","Postal Code":"T2R0P3","Lat":"51.0399929939853","Lng":"-114.087072026753","Plot Size (ft2)":"16","Vacancy":"","Established":"","# Plots":"","Fee":"","Website":"https://connaughtcommunitygarden.weebly.com/"},
    {"Garden Name":"Crescent Heights Community Garden","Address":"1101 2nd ST NW","Quadrant":"NW","Postal Code":"T2M2V7","Lat":"51.0613391639355","Lng":"-114.067946861967","Plot Size (ft2)":"","Vacancy":"","Established":"2019","# Plots":"21","Fee":"","Website":"http://crescentheightsyyc.ca/community-garden-plot/"},
    {"Garden Name":"Deer Ridge Community Garden","Address":"155 Deermont Way SE","Quadrant":"SE","Postal Code":"T2J6S7","Lat":"50.929440800908","Lng":"-114.018989450278","Plot Size (ft2)":"32","Vacancy":"","Established":"2013","# Plots":"29","Fee":"25","Website":"https://deerridgeca.com/community-gardens/"},
    {"Garden Name":"DouglasQuarry Community Garden","Address":"Douglasdale Park","Quadrant":"SE","Postal Code":"T2Z2K8","Lat":"50.9413575969309","Lng":"-114.002225215889","Plot Size (ft2)":"32","Vacancy":"","Established":"2009","# Plots":"31","Fee":"30","Website":"https://dqca.ca/community-garden/"},
    {"Garden Name":"East Village Community Garden","Address":"630 7 Ave SE","Quadrant":"SE","Postal Code":"T2G0J7","Lat":"51.0464450503231","Lng":"-114.048258445791","Plot Size (ft2)":"","Vacancy":"0","Established":"2016","# Plots":"88","Fee":"33","Website":"https://yycevna.org/Garden"},
    {"Garden Name":"FCJ Centre Community Garden","Address":"219 19 Avenue SW","Quadrant":"SW","Postal Code":"T2S0C8","Lat":"51.0360804255607","Lng":"-114.066246938398","Plot Size (ft2)":"32","Vacancy":"","Established":"15","# Plots":"12","Fee":"","Website":"https://www.fcjcentre.ca/community-garden"},
    {"Garden Name":"Garden of Eat'n","Address":"232134 Range Rd 284","Quadrant":"SE","Postal Code":"T1X0K7","Lat":"50.9607794548067","Lng":"-113.85102303105","Plot Size (ft2)":"32","Vacancy":"","Established":"","# Plots":"","Fee":"20","Website":""},
    {"Garden Name":"Glenbrook Green Thumbs","Address":"3020 51 Street SW","Quadrant":"SW","Postal Code":"T3E6S7","Lat":"51.0275357496994","Lng":"-114.16011547888","Plot Size (ft2)":"","Vacancy":"","Established":"","# Plots":"","Fee":"","Website":"https://www.emmanuelcrc.org/projects"},
    {"Garden Name":"Hawkwood Community Garden","Address":"51.128305211, -114.17877307","Quadrant":"NW","Postal Code":"","Lat":"51.1283052109887","Lng":"-114.178773065383","Plot Size (ft2)":"16","Vacancy":"","Established":"2017","# Plots":"30","Fee":"15","Website":"http://hawkwoodca.com/community-programs/community-garden/"},
    {"Garden Name":"Hillhurst Sunnyside Community Garden","Address":"933 4 Street NW","Quadrant":"NW","Postal Code":"T2N1P4","Lat":"51.0605461531913","Lng":"-114.071656763537","Plot Size (ft2)":"96","Vacancy":"","Established":"1989","# Plots":"33","Fee":"50","Website":"https://www.hsca.ca/hillhurst-sunnyside-community-garden"},
    {"Garden Name":"Inglewood Community Garden","Address":"2297 17 St SE","Quadrant":"SE","Postal Code":"T2G3V6","Lat":"51.0340582505548","Lng":"-114.019234404809","Plot Size (ft2)":"Various","Vacancy":"","Established":"2003","# Plots":"119","Fee":"60","Website":"https://inglewoodcommunitygarden.ca/"},
    {"Garden Name":"Kensington First Community Garden","Address":"1320 5 Avenue NW","Quadrant":"NW","Postal Code":"T2N0S2","Lat":"51.0576670731386","Lng":"-114.092222643498","Plot Size (ft2)":"","Vacancy":"","Established":"2011","# Plots":"22","Fee":"","Website":"https://www.hsca.ca/kensington-community-first"},
    {"Garden Name":"Killarney-Glengarry Community Garden","Address":"2828 28 Street SW","Quadrant":"SW","Postal Code":"T3E2J3","Lat":"51.02884064704","Lng":"-114.127060786829","Plot Size (ft2)":"48","Vacancy":"","Established":"1996","# Plots":"18","Fee":"40","Website":"https://www.killarneyglengarry.com/programs"},
    {"Garden Name":"Legacy Community Garden","Address":"404 Legacy View SE","Quadrant":"SE","Postal Code":"T0L0X0","Lat":"50.8553775415711","Lng":"-114.011157232859","Plot Size (ft2)":"24","Vacancy":"","Established":"","# Plots":"70","Fee":"35","Website":"https://legacyresidents.ca/garden/"},
    {"Garden Name":"McClure Fellowship of Gardeners","Address":"5510 26 Avenue NE","Quadrant":"NE","Postal Code":"T1Y6S1","Lat":"51.0776468504674","Lng":"-113.954507923056","Plot Size (ft2)":"40","Vacancy":"","Established":"1998","# Plots":"50","Fee":"30","Website":""},
    {"Garden Name":"Rosscarrock Community Garden","Address":"4411 10 Avenue SW","Quadrant":"SW","Postal Code":"TC30L9","Lat":"51.0425705861535","Lng":"-114.151745540981","Plot Size (ft2)":"","Vacancy":"","Established":"","# Plots":"24","Fee":"25","Website":"https://www.rosscarrock.org/garden/"},
    {"Garden Name":"Mid-Sun Community Garden","Address":"50 Midpark Rise SE","Quadrant":"SE","Postal Code":"T2X1L7","Lat":"50.9155125987131","Lng":"-114.056166761693","Plot Size (ft2)":"32","Vacancy":"","Established":"2009","# Plots":"62","Fee":"20","Website":"https://www.midsun.org/mid-sun-community-garden/"},
    {"Garden Name":"Millrise Community Garden","Address":"14826 Millrise Hill SW","Quadrant":"SW","Postal Code":"T2Y2B4","Lat":"50.918541716718","Lng":"-114.086684447464","Plot Size (ft2)":"18","Vacancy":"","Established":"2012","# Plots":"12","Fee":"35","Website":"https://www.millrise.org/index.php/community-garden-guests"},
    {"Garden Name":"Mission Communityy Garden","Address":"215 24 Ave SW","Quadrant":"SW","Postal Code":"T2S1T1","Lat":"51.0312262702691","Lng":"-114.067057250335","Plot Size (ft2)":"","Vacancy":"","Established":"1995","# Plots":"45","Fee":"","Website":"https://www.cliffbungalowmission.com/mission-community-garden"},
    {"Garden Name":"Montgomery Community Garden","Address":"48 Street & Montalban Avenue NW","Quadrant":"NW","Postal Code":"T3B1G5","Lat":"51.080047321111","Lng":"-114.160076187063","Plot Size (ft2)":"","Vacancy":"","Established":"","# Plots":"Communal","Fee":"20","Website":"https://www.mcapeople.com/get-involved"},
    {"Garden Name":"Mount Pleasant Community Garden","Address":"523 27 Ave NW","Quadrant":"NW","Postal Code":"T2M2H9","Lat":"51.0764844986542","Lng":"-114.07280300153","Plot Size (ft2)":"","Vacancy":"","Established":"","# Plots":"31","Fee":"","Website":"https://mpca.ca/greeninitiatives/#cg"},
    {"Garden Name":"Mount Royal University Community Garden","Address":"10 Mt Royal Ct SW","Quadrant":"SW","Postal Code":"T3E6X4","Lat":"51.0135127578383","Lng":"-114.128005503532","Plot Size (ft2)":"","Vacancy":"","Established":"2010","# Plots":"Communal","Fee":"0","Website":"https://samru.ca/community-garden/"},
    {"Garden Name":"Coventry Hills Community Garden","Address":"110 Covepark Square NE","Quadrant":"NE","Postal Code":"T3K5W9","Lat":"51.1657783470853","Lng":"-114.059652076392","Plot Size (ft2)":"48","Vacancy":"0","Established":"","# Plots":"","Fee":"30","Website":"https://nhca.ca/gardens/"},
    {"Garden Name":"Harvest Gardens","Address":"520 Harvest Lake Drive NE","Quadrant":"NE","Postal Code":"T3K4C3","Lat":"51.1473009926239","Lng":"-114.054903815053","Plot Size (ft2)":"48","Vacancy":"0","Established":"","# Plots":"","Fee":"30","Website":"https://nhca.ca/gardens/"},
    {"Garden Name":"Parkdale Community Garden","Address":"3512 5 Avenue NW","Quadrant":"NW","Postal Code":"T2N0V7","Lat":"51.0607302325799","Lng":"-114.136067838848","Plot Size (ft2)":"","Vacancy":"","Established":"","# Plots":"44","Fee":"55","Website":"http://parkdalecommunity.com/garden/"},
    {"Garden Name":"Parkland Community Garden","Address":"14660 Parkland Blvd SE","Quadrant":"SE","Postal Code":"T2J6L5","Lat":"50.9178880639564","Lng":"-114.02401122721","Plot Size (ft2)":"48","Vacancy":"","Established":"2009","# Plots":"32","Fee":"25","Website":"http://www.parklandyyc.ca/community-garden/"},
    {"Garden Name":"Ramsay Community Garden","Address":"2040 Ramsay Street SE","Quadrant":"SE","Postal Code":"T2G4H9","Lat":"51.0351027223602","Lng":"-114.046273792991","Plot Size (ft2)":"","Vacancy":"","Established":"2008","# Plots":"","Fee":"","Website":"https://sites.google.com/ramsaycalgary.ca/ramsaycommunitygarden/home?authuser=0"},
    {"Garden Name":"Ranchlands Community Garden","Address":"1313 Ranchlands Way NW","Quadrant":"NW","Postal Code":"T3G2A1","Lat":"51.1190599645816","Lng":"-114.196122315562","Plot Size (ft2)":"24","Vacancy":"","Established":"","# Plots":"","Fee":"35","Website":""},
    {"Garden Name":"Renfrew Community Garden","Address":"1324 Phair Ave NE","Quadrant":"NE","Postal Code":"T2E5E9","Lat":"51.0572360586942","Lng":"-114.03042120153","Plot Size (ft2)":"Various","Vacancy":"","Established":"2017","# Plots":"27","Fee":"$14-$50","Website":"https://renfrewcommunitygarden.wordpress.com/"},
    {"Garden Name":"Richmond Knob Hill Community Garden","Address":"2433 26 Avenue SW","Quadrant":"SW","Postal Code":"T2T5Y5","Lat":"51.0297664290072","Lng":"-114.116823182487","Plot Size (ft2)":"","Vacancy":"0","Established":"","# Plots":"","Fee":"25","Website":"https://www.richmondknobhill.ca/event-info/community-garden"},
    {"Garden Name":"Rocky Ridge and Royal Oak Community Garden","Address":"Tara Field Park","Quadrant":"NW","Postal Code":"T3G5L4","Lat":"51.1427160838764","Lng":"-114.216907899678","Plot Size (ft2)":"","Vacancy":"","Established":"","# Plots":"","Fee":"","Website":"https://rrroca.org/en/rrroca-community/rrroca-calgary-community-garden/"},
    {"Garden Name":"Rutland Park Community Garden","Address":"3130 40 Avenue SW","Quadrant":"SW","Postal Code":"T3E4T2","Lat":"51.0187139416682","Lng":"-114.134933121115","Plot Size (ft2)":"","Vacancy":"","Established":"","# Plots":"","Fee":"","Website":""},
    {"Garden Name":"Silver Springs Edible Garden","Address":"Norwest United Silverhill","Quadrant":"NW","Postal Code":"","Lat":"51.1076278704238","Lng":"-114.199688178512","Plot Size (ft2)":"","Vacancy":"","Established":"2009","# Plots":"","Fee":"","Website":"https://silverspringsgarden.wordpress.com/"},
    {"Garden Name":"Silverado Community Garden","Address":"Silverado Blvd  & Silverado Drive","Quadrant":"SW","Postal Code":"T2X0H7","Lat":"50.8847596742205","Lng":"-114.078960458031","Plot Size (ft2)":"24","Vacancy":"","Established":"","# Plots":"18","Fee":"","Website":"http://www.silveradoca.ca/community-garden/"},
    {"Garden Name":"Somerset Bridlewood Community Garden","Address":"100 Somervale Dr SW","Quadrant":"SW","Postal Code":"T2Y3J5","Lat":"50.9013025769047","Lng":"-114.071487953655","Plot Size (ft2)":"48","Vacancy":"","Established":"2010","# Plots":"21","Fee":"25","Website":"http://www.mysbca.ca/about-our-garden.html"},
    {"Garden Name":"Southwood Community Garden","Address":"11 Sackville Drive SW","Quadrant":"SW","Postal Code":"T2W0W3","Lat":"50.9566051507667","Lng":"-114.086666115841","Plot Size (ft2)":"32","Vacancy":"","Established":"","# Plots":"","Fee":"20","Website":"https://southwoodcommunitygardens.wordpress.com/"},
    {"Garden Name":"Springbank Hill Community Garden","Address":"","Quadrant":"","Postal Code":"","Lat":"","Lng":"","Plot Size (ft2)":"","Vacancy":"","Established":"2021","# Plots":"","Fee":"","Website":"https://springbankhill.org/programs/community-gardens/"},
    {"Garden Name":"St. Albert the Great Community Garden","Address":"10 Prestwick Drive SE","Quadrant":"SE","Postal Code":"T2Z4J6","Lat":"50.9237840972518","Lng":"-113.966643261797","Plot Size (ft2)":"9","Vacancy":"","Established":"2018","# Plots":"42","Fee":"20","Website":""},
    {"Garden Name":"St. Barnabas Community Garden","Address":"1407 7 Avenue NW","Quadrant":"NW","Postal Code":"T2N0Z3","Lat":"51.0587696564884","Lng":"-114.092270468272","Plot Size (ft2)":"","Vacancy":"","Established":"2011","# Plots":"18","Fee":"45","Website":"https://stbarnabasgarden.org/"},
    {"Garden Name":"Sunalta Community Garden","Address":"1627 10 Avenue SW","Quadrant":"SW","Postal Code":"T3C0J7","Lat":"51.0440329977968","Lng":"-114.098453289988","Plot Size (ft2)":"","Vacancy":"0","Established":"","# Plots":"20","Fee":"","Website":"https://www.sunalta.net/community-gardens"},
    {"Garden Name":"Tuscany Community Garden","Address":"Tuscany Hill NW & Tuscany Meadows Dr NW","Quadrant":"NW","Postal Code":"","Lat":"51.1151454006189","Lng":"-114.246137102198","Plot Size (ft2)":"","Vacancy":"","Established":"","# Plots":"","Fee":"35","Website":"https://www.tuscanyca.org/community-garden/"},
    {"Garden Name":"Twin Views Communal Garden","Address":"2951 26 Ave SE","Quadrant":"SE","Postal Code":"T2B2P2","Lat":"51.0298603024388","Lng":"-113.987651843965","Plot Size (ft2)":"","Vacancy":"","Established":"2015","# Plots":"25","Fee":"0","Website":"https://www.facebook.com/pages/Twin-Views-Communal-Garden/417652988373742"},
    {"Garden Name":"Unitarian Church Community Garden","Address":"1703 1 Street NW","Quadrant":"NW","Postal Code":"T2M0H4","Lat":"51.0675938245787","Lng":"-114.065519476493","Plot Size (ft2)":"","Vacancy":"","Established":"2007","# Plots":"16","Fee":"","Website":"https://calgaryunitarians.ca/justice/a-green-sanctuary/"},
    {"Garden Name":"University of Calgary Campus Community Garden","Address":"51.07605121, -114.140192631","Quadrant":"NW","Postal Code":"T2N4V5","Lat":"51.0760512095985","Lng":"-114.140192630801","Plot Size (ft2)":"100","Vacancy":"","Established":"","# Plots":"","Fee":"20","Website":"https://www.ucalgary.ca/sustainability/our-sustainable-campus/campus-community-garden"},
    {"Garden Name":"Valley Ridge Community Garden","Address":"170 Valley Meadow Close NW","Quadrant":"NW","Postal Code":"T3B5M2","Lat":"51.0895755514425","Lng":"-114.24562836541","Plot Size (ft2)":"","Vacancy":"","Established":"2011","# Plots":"31","Fee":"35","Website":"https://www.vrca.community/community-garden/"},
    {"Garden Name":"Varsity Community Garden","Address":"4303 Varsity Drive NW","Quadrant":"NW","Postal Code":"T3A0Z7","Lat":"51.0918396097337","Lng":"-114.149983620104","Plot Size (ft2)":"32","Vacancy":"","Established":"","# Plots":"36","Fee":"34","Website":"http://www.varsitycommunitygarden.ca/"},
    {"Garden Name":"West Hillhurst Community Garden","Address":"1940 6 Avenue NW","Quadrant":"NW","Postal Code":"T2N0W3","Lat":"51.0588019369573","Lng":"-114.104548226776","Plot Size (ft2)":"Various","Vacancy":"","Established":"","# Plots":"35","Fee":"40","Website":"https://www.westhillhurst.com/gardens/"},
    {"Garden Name":"West Springs Community Hub and Garden","Address":"25 Weston Park SW","Quadrant":"SW","Postal Code":"T3E5E6","Lat":"51.0644100089552","Lng":"-114.194204813282","Plot Size (ft2)":"32","Vacancy":"","Established":"","# Plots":"80","Fee":"","Website":"https://wscr.ca/wscr-community-hub-garden/"},
    {"Garden Name":"Wildwood Permaculture Gardens","Address":"4411 Spruce Drive SW","Quadrant":"SW","Postal Code":"T3C3B1","Lat":"51.0514890412826","Lng":"-114.151152973441","Plot Size (ft2)":"","Vacancy":"","Established":"","# Plots":"18","Fee":"","Website":"https://mywildwood.ca/community/community-garden/"},
    {"Garden Name":"Willow Ridge Community Garden","Address":"680 Acadia Drive SE","Quadrant":"SE","Postal Code":"T2J0C1","Lat":"50.9602846634326","Lng":"-114.043035007743","Plot Size (ft2)":"","Vacancy":"","Established":"2005","# Plots":"40","Fee":"40","Website":"https://mywillowridge.ca/activities/community-garden"},
    {"Garden Name":"Winston Heights - Mountview Community Garden","Address":"520 27 Avenue NE","Quadrant":"NE","Postal Code":"T2E3Z3","Lat":"51.0778371792923","Lng":"-114.052193018822","Plot Size (ft2)":"32","Vacancy":"","Established":"2014","# Plots":"58","Fee":"50","Website":"https://winstonheights.ca/gardens/communitygarden/"}
    ]